{
"type": "FeatureCollection",
"name": "Colegios_Log",
"crs": { "type": "name", "properties": { "name": "urn:ogc:def:crs:OGC:1.3:CRS84" } },
"features": [
{ "type": "Feature", "properties": { "id": 1, "Colegio": "C.P.E.I.P.S. - Alcaste", "Tipo": "Concertado", "Direccion": "Ctra.de Laguardia, Km. 1 y Centro de Nalda", "Cod_postal": 26006, "Web": "www.alcaste.com" }, "geometry": { "type": "Point", "coordinates": [ -2.450826593391755, 42.480255930541311 ] } },
{ "type": "Feature", "properties": { "id": 2, "Colegio": "C.P.E.I.P.S. - Compañía de María", "Tipo": "Concertado", "Direccion": "Capitan Gaona, 2", "Cod_postal": 26001, "Web": "www.ciamarialog.org" }, "geometry": { "type": "Point", "coordinates": [ -2.439739100631721, 42.468299421216862 ] } },
{ "type": "Feature", "properties": { "id": 3, "Colegio": "C.P.E.I.P.S. - Divino Maestro", "Tipo": "Concertado", "Direccion": "Av.Del Club Deportivo, 25", "Cod_postal": 26007, "Web": "www.colegiodivinomaestro.es" }, "geometry": { "type": "Point", "coordinates": [ -2.452775235776988, 42.456248948649652 ] } },
{ "type": "Feature", "properties": { "id": 20, "Colegio": "I.E.S. - Inventor Cosme García", "Tipo": "Público", "Direccion": "Republica Argentina,68", "Cod_postal": 26002, "Web": "www.cosmegarcia.com" }, "geometry": { "type": "Point", "coordinates": [ -2.452605788613055, 42.455165459200856 ] } },
{ "type": "Feature", "properties": { "id": 4, "Colegio": "C.P.E.I.P.S. - Escuelas Pías", "Tipo": "Concertado", "Direccion": "Doce Ligero, 2", "Cod_postal": 26004, "Web": "www.logrono.escolapiosemaus.org" }, "geometry": { "type": "Point", "coordinates": [ -2.437513694545397, 42.46643699971424 ] } },
{ "type": "Feature", "properties": { "id": 5, "Colegio": "C.P.E.I.P.S. - Inmaculado Corazón de María", "Tipo": "Concertado", "Direccion": "Vara del Rey, 76", "Cod_postal": 26006, "Web": "www.escolapiassotillo.org" }, "geometry": { "type": "Point", "coordinates": [ -2.447962936321283, 42.456578159038138 ] } },
{ "type": "Feature", "properties": { "id": 6, "Colegio": "C.P.E.I.P.S. - Los Boscos", "Tipo": "Concertado", "Direccion": "Mugica, 9", "Cod_postal": 26002, "Web": "www.salesianoslosboscos.com" }, "geometry": { "type": "Point", "coordinates": [ -2.450092322348042, 42.462086967216329 ] } },
{ "type": "Feature", "properties": { "id": 7, "Colegio": "C.P.E.I.P.S. - Ntra.Sra.Del Buen Consejo", "Tipo": "Concertado", "Direccion": "Vara del Rey,35 y Belchite,S\/N", "Cod_postal": 26002, "Web": "www.agustinasnsbclo.com" }, "geometry": { "type": "Point", "coordinates": [ -2.445031500385217, 42.461341097956883 ] } },
{ "type": "Feature", "properties": { "id": 8, "Colegio": "C.P.E.I.P.S. - Paula Montal", "Tipo": "Concertado", "Direccion": "Portillejo ,40", "Cod_postal": 26006, "Web": "www.paulamontal.edurioja.org" }, "geometry": { "type": "Point", "coordinates": [ -2.466144617011381, 42.466745323879721 ] } },
{ "type": "Feature", "properties": { "id": 9, "Colegio": "C.P.E.I.P.S. - Purísima Concepción y Sta.María Micaela", "Tipo": "Concertado", "Direccion": "Juan Xxiii, 10", "Cod_postal": 26003, "Web": "www.adoratriceslogrono.com" }, "geometry": { "type": "Point", "coordinates": [ -2.440147185884827, 42.463285964679955 ] } },
{ "type": "Feature", "properties": { "id": 10, "Colegio": "C.P.E.I.P.S. - Rey Pastor", "Tipo": "Concertado", "Direccion": "Velez de Guevara, 6", "Cod_postal": 26005, "Web": "www.colegioreypastor.es" }, "geometry": { "type": "Point", "coordinates": [ -2.455530164250732, 42.463931809575854 ] } },
{ "type": "Feature", "properties": { "id": 11, "Colegio": "C.P.E.I.P.S. - Sagrado Corazón", "Tipo": "Concertado", "Direccion": "Huesca,39 y Duques de Najera,19(Fp)", "Cod_postal": 26005, "Web": "www.jesuitasrioja.org" }, "geometry": { "type": "Point", "coordinates": [ -2.454860847953189, 42.459152399580631 ] } },
{ "type": "Feature", "properties": { "id": 12, "Colegio": "C.P.E.I.P.S. - Salesianos Domingo Savio", "Tipo": "Concertado", "Direccion": "Cno.de San Adrian, 22", "Cod_postal": 26006, "Web": "www.salesianosrioja.com" }, "geometry": { "type": "Point", "coordinates": [ -2.462084945375621, 42.446916781263468 ] } },
{ "type": "Feature", "properties": { "id": 13, "Colegio": "C.P.E.I.P.S. - San José", "Tipo": "Concertado", "Direccion": "Calleja Vieja S\/N", "Cod_postal": 26003, "Web": "www.maristaslogrono.es" }, "geometry": { "type": "Point", "coordinates": [ -2.439650140870618, 42.448800622045106 ] } },
{ "type": "Feature", "properties": { "id": 14, "Colegio": "C.P.E.I.P.S. - Santa María", "Tipo": "Concertado", "Direccion": "Puente Madre, N.2", "Cod_postal": 26006, "Web": "www.marianistaslogrono.org" }, "geometry": { "type": "Point", "coordinates": [ -2.416901859112333, 42.449905059876059 ] } },
{ "type": "Feature", "properties": { "id": 15, "Colegio": "I.E.S. - Batalla de Clavijo", "Tipo": "Público", "Direccion": "Gral. Urrutia 4", "Cod_postal": 26005, "Web": "www.iesbatalladeclavijo.com" }, "geometry": { "type": "Point", "coordinates": [ -2.456140174040899, 42.469469135251252 ] } },
{ "type": "Feature", "properties": { "id": 17, "Colegio": "I.E.S. - Duques de Nájera", "Tipo": "Público", "Direccion": "Duques de Najera, 100", "Cod_postal": 26005, "Web": "www.iesduquesdenajera.es" }, "geometry": { "type": "Point", "coordinates": [ -2.461466463227256, 42.462685947967977 ] } },
{ "type": "Feature", "properties": { "id": 18, "Colegio": "I.E.S. - Escultor Daniel", "Tipo": "Público", "Direccion": "Gonzalo de Berceo,49", "Cod_postal": 26005, "Web": "www.iesdaniel.com" }, "geometry": { "type": "Point", "coordinates": [ -2.461901377614689, 42.466523455630096 ] } },
{ "type": "Feature", "properties": { "id": 19, "Colegio": "I.E.S. - Hermanos D'Elhuyar", "Tipo": "Público", "Direccion": "Albia de Castro 9", "Cod_postal": 26003, "Web": "www.iesdelhuyar.edurioja.org" }, "geometry": { "type": "Point", "coordinates": [ -2.436789307919511, 42.461890083596188 ] } },
{ "type": "Feature", "properties": { "id": 21, "Colegio": "I.E.S. - Práxedes Mateo Sagasta", "Tipo": "Público", "Direccion": "Glorieta del Dr.Zubia,S\/N", "Cod_postal": 26003, "Web": "www.iessagasta.larioja.edu.es" }, "geometry": { "type": "Point", "coordinates": [ -2.442787737522813, 42.465598475299679 ] } },
{ "type": "Feature", "properties": { "id": 22, "Colegio": "I.E.S. - Tomás Mingot", "Tipo": "Público", "Direccion": "Siete Infantes de Lara,1", "Cod_postal": 26007, "Web": "www.iestomasmingot.larioja.edu.es" }, "geometry": { "type": "Point", "coordinates": [ -2.459529117319597, 42.458473168727636 ] } }
]
}
